{
   "type": "FeatureCollection",
   "features": [
  {
    "type": "Feature",
    "geometry": {
       "type": "Point",
       "coordinates":  [ -118.256112,34.045921 ]
    },
    "properties": {
    "attraction":"Chica's Tacos",
    "attraction_type":"Restaurant (Food)",
    "address":"728 S Olive St, Los Angeles, CA 90014",
    "Description":"Trendy and colorful taco shop with freshly made aguas frescas and some of the best fish tacos in Los Angeles."
    }
  },
  {
    "type": "Feature",
    "geometry": {
       "type": "Point",
       "coordinates":  [ -118.254363,34.051329 ]
    },
    "properties": {
    "attraction":"Grand Central Market",
    "attraction_type":"Restaurant (Food)",
    "address":"633 W 5th St, Los Angeles, CA 90071",
    "Description":"Large and vibrant market with a variety of food options; located close to Walt Disney Concert Hall, Museum of Contemporary Art, and Grand Park."
    }
  },
  {
    "type": "Feature",
    "geometry": {
       "type": "Point",
       "coordinates":  [ -118.250759,34.046872 ]
    },
    "properties": {
    "attraction":"Blu Jam Cafe,
    "attraction_type":"Restaurant (Food)",
    "address":"541 S Spring St #110, Los Angeles, CA 90013",
    "Description":"Popular brunch spot with AMAZING French toast. Arrive early if dining on a weekend, there's always a wait (but it's worth it!)."
    }
  },
  {
    "type": "Feature",
    "geometry": {
       "type": "Point",
       "coordinates":  [ -118.36021,34.072253 ]
    },
    "properties": {
    "attraction":"Farmer's Market at The Grove",
    "attraction_type":"Restaurant (Food)",
    "address":"6333 W 3rd St, Los Angeles, CA 90036",
    "Description":"Open air market with almost every type of food option, located at The Grove, an upscale outdoor shopping mall and popular LA landmark."
    }
  },
  {
    "type": "Feature",
    "geometry": {
       "type": "Point",
       "coordinates":  [ -118.480308,34.019901 ]
    },
    "properties": {
    "attraction":"Tacos Por Favor",
    "attraction_type":"Restaurant (Food)",
    "address":"1406 Olympic Blvd, Santa Monica, CA 90404",
    "Description":"Javi & Amanda's favorite hole-in-the-wall post-beach taco shop with a HUGE menu including lots of Mexican options."
    }
  },
  {
    "type": "Feature",
    "geometry": {
       "type": "Point",
       "coordinates":  [ -118.473371,33.993532 ]
    },
    "properties": {
    "attraction":"Tacos Por Favor",
    "attraction_type":"Restaurant (Food)",
    "address":"826 Hampton Dr, Venice, CA 90291",
    "Description":"Javi & Amanda's favorite hole-in-the-wall post-beach taco shop with a HUGE menu including lots of Mexican options."
    }
  },
  {
    "type": "Feature",
    "geometry": {
       "type": "Point",
       "coordinates":  [ -118.452849,34.03322 ]
    },
    "properties": {
    "attraction":"Tacos Por Favor",
    "attraction_type":"Restaurant (Food)",
    "address":"11901 W Olympic Blvd, Los Angeles, CA 90064",
    "Description":"Javi & Amanda's favorite hole-in-the-wall post-beach taco shop with a HUGE menu including lots of Mexican options."
    }
  },
  {
    "type": "Feature",
    "geometry": {
       "type": "Point",
       "coordinates":  [ -118.346173,34.057272 ]
    },
    "properties": {
    "attraction":"El Chato",
    "attraction_type":"Restaurant (Food)",
    "address":"5300 W Olympic Blvd, Los Angeles, CA 90036",
    "Description":"A favorite LA taco truck that's only open after 9:00pm, but worth the trip for cheap and authentic street tacos."
    }
  },
  {
    "type": "Feature",
    "geometry": {
       "type": "Point",
       "coordinates":  [ -118.346645,34.168396 ]
    },
    "properties": {
    "attraction":"Porto'ss",
    "attraction_type":"Restaurant (Food)",
    "address":"3614 W Magnolia Blvd, Burbank, CA 91505",
    "Description":"Large Cuban cafe with salads, sandwiches, coffee, and baked goods."
    }
  },
  {
    "type": "Feature",
    "geometry": {
       "type": "Point",
       "coordinates":  [ -118.255494,34.150597 ]
    },
    "properties": {
    "attraction":"Porto's",
    "attraction_type":"Restaurant (Food)",
    "address":"315 N Brand Blvd, Glendale, CA 91203",
    "Description":"Large Cuban cafe with salads, sandwiches, coffee, and baked goods."
    }
  },
  {
    "type": "Feature",
    "geometry": {
       "type": "Point",
       "coordinates":  [ -118.472854,33.998562 ]
    },
    "properties": {
    "attraction":"Jeni's Splendid Ice Creams",
    "attraction_type":"Restaurant (Food)",
    "address":"540 Rose Ave, Venice, CA 90291",
    "Description":"Our favorite gourmet ice cream spot! Make sure you enjoy some samples before ordering!"
    }
  },
  {
    "type": "Feature",
    "geometry": {
       "type": "Point",
       "coordinates":  [ -118.287234,34.106991 ]
    },
    "properties": {
    "attraction":"Jeni's Splendid Ice Creams",
    "attraction_type":"Restaurant (Food)",
    "address":"1954 Hillhurst Ave, Los Angeles, CA 90027",
    "Description":"Our favorite gourmet ice cream spot! Make sure you enjoy some samples before ordering!"
    }
  },
  {
    "type": "Feature",
    "geometry": {
       "type": "Point",
       "coordinates":  [ -118.645453,34.153038 ]
    },
    "properties": {
    "attraction":"Jeni's Splendid Ice Creams",
    "attraction_type":"Restaurant (Food)",
    "address":"4751 Commons Way Suite A, Calabasas, CA 91302",
    "Description":"Our favorite gourmet ice cream spot! Make sure you enjoy some samples before ordering!"
    }
  },
  {
    "type": "Feature",
    "geometry": {
       "type": "Point",
       "coordinates":  [ -118.323986,34.073771 ]
    },
    "properties": {
    "attraction":"Jeni's Splendid Ice Creams",
    "attraction_type":"Restaurant (Food)",
    "address":"123 N Larchmont Blvd, Los Angeles, CA 90004",
    "Description":"Our favorite gourmet ice cream spot! Make sure you enjoy some samples before ordering!"
    }
  },
  {
    "type": "Feature",
    "geometry": {
       "type": "Point",
       "coordinates":  [ -118.373173,34.164981 ]
    },
    "properties": {
    "attraction":"Republic of Pie",
    "attraction_type":"Restaurant (Food)",
    "address":"11118 W Magnolia Blvd, North Hollywood, CA 91601",
    "Description":"Laid-back cafe in the North Hollywood Arts District with comfortable seating, delicious pie, coffee, and high-quality live music most nights of the week."
    }
  },
  {
    "type": "Feature",
    "geometry": {
       "type": "Point",
       "coordinates":  [ -118.359024,34.072857 ]
    },
    "properties": {
    "attraction":"Groundwork Coffee Co.",
    "attraction_type":"Restaurant (Food)",
    "address":"189 The Grove Dr, Los Angeles, CA 90036",
    "Description":"Best coffee chain in LA! They also serve salads and sandwiches."
    }
  },
  {
    "type": "Feature",
    "geometry": {
       "type": "Point",
       "coordinates":  [ -118.329751,34.097193 ]
    },
    "properties": {
    "attraction":"Groundwork Coffee Co.",
    "attraction_type":"Restaurant (Food)",
    "address":"1501 N Cahuenga Blvd, Los Angeles, CA 90028",
    "Description":"Best coffee chain in LA! They also serve salads and sandwiches."
    }
  },
  {
    "type": "Feature",
    "geometry": {
       "type": "Point",
       "coordinates":  [ -118.471886,33.999906 ]
    },
    "properties": {
    "attraction":"Groundwork Coffee Co.",
    "attraction_type":"Restaurant (Food)",
    "address":"671 Rose Avenue, Venice, CA 90291",
    "Description":"Best coffee chain in LA! They also serve salads and sandwiches."
    }
  },
  {
    "type": "Feature",
    "geometry": {
       "type": "Point",
       "coordinates":  [ -118.380562,34.168238 ]
    },
    "properties": {
    "attraction":"Groundwork Coffee Co.",
    "attraction_type":"Restaurant (Food)",
    "address":"11275 Chandler Blvd, North Hollywood, CA 91601",
    "Description":"Best coffee chain in LA! They also serve salads and sandwiches."
    }
  }
]
}
